id,time,country,province,city,lat,long
4636936,2017-06-21T00:06:41.733Z,CA,ON,Fort Erie,42.9052,-78.9365
5523775,2017-06-21T00:15:32.953Z,CA,BC,Vancouver,49.25,-123.1333
5132483,2017-06-21T00:43:08.333Z,CA,AB,Sherwood Park,53.5167,-113.3167
5250775,2017-06-21T00:51:48.937Z,CA,AB,Calgary,51.0378,-114.08
4529862,2017-06-21T01:00:36.740Z,CA,AB,Calgary,51.04745,-114.1805
4785028,2017-06-21T01:17:31.063Z,CA,ON,Kanata,45.3387,-75.9001
4990897,2017-06-21T01:33:40.937Z,CA,ON,Barrie,44.3303,-79.7268
5046632,2017-06-21T01:37:12.750Z,CA,BC,Burnaby,49.234,-123.02
5154833,2017-06-21T01:44:35.430Z,CA,ON,Brantford,43.1508,-80.2094
5161569,2017-06-21T01:45:05.700Z,CA,SK,Saskatoon,52.1477,-106.572
5244028,2017-06-21T01:51:17.660Z,CA,AB,Calgary,51.03807,-114.11999
5305916,2017-06-21T01:55:34.070Z,CA,ON,Mississauga,43.6824,-79.6215
5323438,2017-06-21T01:56:24.843Z,CA,QC,Québec,46.9001,-71.1599
5391470,2017-06-21T02:02:09.410Z,CA,ON,Toronto,43.6666,-79.3823
4643315,2017-06-21T02:07:02.993Z,CA,ON,Oshawa,43.9205,-78.8287
4800415,2017-06-21T02:18:52.483Z,CA,ON,Richmond Hill,43.8939,-79.4375
4540255,2017-06-21T03:01:11.837Z,CA,ON,Toronto,43.66096,-79.37224
5575847,2017-06-21T03:19:29.573Z,CA,AB,Calgary,51.0242,-114.1004
5077880,2017-06-21T03:39:13.623Z,CA,BC,Maple Ridge,49.17818,-122.5412
5214015,2017-06-21T03:48:54.800Z,CA,AB,Calgary,51.03921,-113.97842
5377886,2017-06-21T04:00:41.353Z,CA,AB,Red Deer,52.31321,-113.82798
4649814,2017-06-21T04:07:27.357Z,CA,ON,Maple,43.8526,-79.5117
4847612,2017-06-21T04:22:58.017Z,CA,ON,Ajax,43.86685,-79.04553
4848403,2017-06-21T04:23:03.360Z,CA,AB,Calgary,51.0823,-113.9578
4936042,2017-06-21T04:30:37.383Z,CA,ON,North Bay,46.2924,-79.4383
4548199,2017-06-21T05:01:29.547Z,CA,ON,Windsor,42.2545,-82.9809
4576102,2017-06-21T05:02:07.890Z,CA,AB,Calgary,51.1726,-114.101
5593272,2017-06-21T05:21:06.963Z,CA,AB,Calgary,50.9505,-113.947
4895616,2017-06-21T05:27:05.627Z,CA,MB,Winnipeg,49.8136,-97.0759
5082405,2017-06-21T05:39:37.477Z,CA,BC,Abbotsford,49.05882,-122.27276
5187326,2017-06-21T05:46:51.890Z,CA,AB,Edmonton,53.5705,-113.5051
4740630,2017-06-21T06:14:35.627Z,CA,AB,Calgary,51.04712,-114.05244
4793978,2017-06-21T06:18:12.537Z,CA,QC,Magog,45.2764,-72.1111
4945553,2017-06-21T06:31:01.883Z,CA,ON,Toronto,43.6459,-79.3857
5083525,2017-06-21T06:39:39.977Z,CA,ON,Brampton,43.76488,-79.7228
5407242,2017-06-21T07:03:44.607Z,CA,ON,Barrie,44.3303,-79.7268
5455521,2017-06-21T07:09:10.090Z,CA,QC,Montréal,45.467,-73.6484
4697589,2017-06-21T07:11:28.663Z,CA,ON,Richmond Hill,43.8939,-79.4375
5226290,2017-06-21T07:49:55.240Z,CA,AB,Edmonton,53.5141,-113.601
5364781,2017-06-21T07:59:47.460Z,CA,ON,Toronto,43.6682,-79.4209
4569351,2017-06-21T08:01:52.623Z,CA,ON,Thunder Bay,48.4084,-89.255
4757487,2017-06-21T08:15:44.497Z,CA,ON,Toronto,43.672,-79.3791
4877532,2017-06-21T08:25:38.380Z,CA,AB,Calgary,51.0429,-114.1037
4965931,2017-06-21T08:32:04.333Z,CA,NS,Halifax,44.6496,-63.6133
5477010,2017-06-21T09:11:13.563Z,CA,ON,Scarborough,43.7658,-79.185
4856155,2017-06-21T09:23:37.540Z,CA,AB,Calgary,50.96491,-114.08751
4541681,2017-06-21T10:01:21.980Z,CA,ON,Toronto,43.6781,-79.2954
5434680,2017-06-21T10:06:45.413Z,CA,SK,Saskatoon,52.1225,-106.72488
5177406,2017-06-21T10:46:06.467Z,CA,AB,Calgary,51.0799,-114.081
4956598,2017-06-21T11:31:32.473Z,CA,ON,North York,43.781,-79.3483
5211991,2017-06-21T11:48:40.800Z,CA,QC,Montreal,45.5695,-73.5731
4607343,2017-06-21T12:04:39.613Z,CA,ON,Scarborough,43.7295,-79.2629
5534697,2017-06-21T12:16:33.507Z,CA,BC,Delta,49.1537,-122.906
5051068,2017-06-21T12:37:25.963Z,CA,AB,Wetaskiwin,52.8333,-113.45
5415956,2017-06-21T14:04:32.833Z,CA,ON,Toronto,43.64686,-79.42801
4737759,2017-06-21T15:14:22.110Z,CA,ON,Shelburne,44.0789,-80.2062
4775351,2017-06-21T15:17:02.053Z,CA,ON,Toronto,43.6546,-79.3879
4770480,2017-06-21T16:16:40.803Z,CA,AB,Airdrie,51.2889,-114.015
5071907,2017-06-21T16:38:47.250Z,CA,SK,Saskatoon,52.1225,-106.72488
5218080,2017-06-21T16:49:13.323Z,CA,ON,Mississauga,43.65519,-79.66041
5283087,2017-06-21T16:54:18.913Z,CA,ON,East York,43.6872,-79.3368
4725566,2017-06-21T17:13:46.157Z,CA,AB,Strathmore,51.06087,-113.38954
4957128,2017-06-21T17:31:34.953Z,CA,AB,Calgary,51.0818,-113.959
5203662,2017-06-21T17:48:12.207Z,CA,ON,Nepean,45.2778,-75.7563
5394704,2017-06-21T18:02:23.347Z,CA,AB,Calgary,51.063,-113.889
5325840,2017-06-21T19:56:38.873Z,CA,ON,Alliston,44.1492,-79.8553
4561518,2017-06-21T20:01:48.400Z,CA,ON,Thunder Bay,48.3738,-89.2779
5006150,2017-06-21T20:34:26.597Z,CA,ON,Etobicoke,43.6527,-79.5524
5192837,2017-06-21T20:47:17.173Z,CA,AB,Calgary,51.14483,-114.04757
4667327,2017-06-21T21:08:43.710Z,CA,SK,Saskatoon,52.122,-106.646
5570923,2017-06-21T21:19:08.127Z,CA,ON,Ottawa,45.3804,-75.7468
5190883,2017-06-21T21:47:07.100Z,CA,AB,Beaumont,53.43276,-113.43939
4574216,2017-06-21T22:01:57.547Z,CA,ON,Dryden,49.7805,-92.8344
4583251,2017-06-21T22:02:37.980Z,CA,ON,North York,43.7566,-79.4035
4649968,2017-06-21T22:07:27.480Z,CA,ON,Maple,43.8526,-79.5117
5455502,2017-06-21T22:09:10.313Z,CA,AB,Calgary,51.0374,-114.0872
5476129,2017-06-21T22:11:01.283Z,CA,QC,Montréal,45.5435,-73.6341
