id,time,country,province,city,lat,long
4582578,2017-06-21T00:02:33.737Z,CA,AB,Calgary,51.0494,-113.9564
4589647,2017-06-21T00:03:08.637Z,CA,AB,Calgary,51.0571,-114.077
4677832,2017-06-21T00:09:33.013Z,CA,ON,Richmond Hill,43.8428,-79.4239
4716388,2017-06-21T00:12:51.793Z,CA,BC,Richmond,49.1423,-123.1569
4761856,2017-06-21T00:16:08.767Z,CA,AB,Red Deer,52.2895,-113.814
4777645,2017-06-21T00:17:08.717Z,CA,ON,Innisfil,44.3479,-79.5594
4652950,2017-06-21T01:07:33.597Z,CA,ON,Petawawa,45.8959,-77.2676
4663176,2017-06-21T01:08:26.883Z,CA,AB,Calgary,50.9722,-114.062
5072867,2017-06-21T01:38:51.733Z,CA,ON,Scarborough,43.83601,-79.22783
5416874,2017-06-21T02:04:35.190Z,CA,ON,Almonte,45.2294,-76.1904
5421779,2017-06-21T02:04:59.590Z,CA,NL,Corner Brook,48.9516,-57.9553
4712154,2017-06-21T02:12:30.130Z,CA,ON,Ottawa,45.3519,-75.7911
5604411,2017-06-21T02:21:51.417Z,CA,SK,Regina,50.44291,-104.63481
4970722,2017-06-21T02:32:25.327Z,CA,QC,Brossard,45.4693,-73.4848
5037200,2017-06-21T02:36:31.390Z,CA,ON,Scarborough,43.836,-79.22806
5343214,2017-06-21T02:58:25.437Z,CA,AB,Calgary,51.1414,-114.076
4537157,2017-06-21T03:01:06.397Z,CA,ON,Barrie,44.3572,-79.6929
5387985,2017-06-21T03:01:39.950Z,CA,AB,Edmonton,53.48419,-113.66238
4617371,2017-06-21T03:05:24.887Z,CA,AB,Calgary,51.03922,-113.97842
5520279,2017-06-21T03:15:15.287Z,CA,AB,Calgary,51.0818,-113.959
5588123,2017-06-21T03:20:40.180Z,CA,SK,Saskatoon,52.13069,-106.71143
4866900,2017-06-21T03:24:33.737Z,CA,ON,Brantford,43.1321,-80.3064
4876457,2017-06-21T03:25:34.170Z,CA,ON,York,43.703,-79.512
4888153,2017-06-21T03:26:21.903Z,CA,BC,Richmond,49.18084,-123.12191
4744228,2017-06-21T04:14:54.997Z,CA,ON,Cambridge,43.39859,-80.36317
4752434,2017-06-21T04:15:24.617Z,CA,ON,Ottawa,45.4019,-75.7513
4774371,2017-06-21T04:16:54.533Z,CA,BC,Vancouver,49.2577,-123.132
4862604,2017-06-21T04:24:14.130Z,CA,ON,Toronto,43.6682,-79.4209
4942604,2017-06-21T04:30:55.053Z,CA,AB,Calgary,51.04176,-113.99981
4799975,2017-06-21T05:18:52.380Z,CA,QC,Kiamika,46.50819,-75.35476
4861945,2017-06-21T05:24:07.160Z,CA,AB,Calgary,51.1315,-114.01
5244936,2017-06-21T05:51:22.630Z,CA,QC,Saint-Laurent,45.50381,-73.68475
5317932,2017-06-21T05:56:06.120Z,CA,ON,Ottawa,45.444,-75.693
4603596,2017-06-21T06:04:24.553Z,CA,ON,Etobicoke,43.6879,-79.557
4655705,2017-06-21T06:07:51.000Z,CA,ON,Kingston,44.24489,-76.49706
5462553,2017-06-21T06:09:59.243Z,CA,AB,Calgary,51.0829,-114.095
5474197,2017-06-21T06:11:00.170Z,CA,AB,Calgary,50.9361,-114.016
5485803,2017-06-21T06:11:45.597Z,CA,AB,Lethbridge,49.6976,-112.848
4766964,2017-06-21T06:16:29.833Z,CA,SK,Lloydminster,53.2717,-110.0853
4964105,2017-06-21T06:31:54.577Z,CA,ON,Brampton,43.6971,-79.7944
4968982,2017-06-21T06:32:16.873Z,CA,ON,York,43.6915,-79.4307
5181764,2017-06-21T06:46:15.550Z,CA,NS,Dartmouth,44.6792,-63.5801
5218793,2017-06-21T06:49:17.960Z,CA,BC,Port Moody,49.2831,-122.832
4861985,2017-06-21T07:24:07.313Z,CA,AB,Edmonton,53.5185,-113.6579
4901247,2017-06-21T07:27:34.660Z,CA,QC,Delson,45.3807,-73.5372
4940531,2017-06-21T07:30:50.607Z,CA,AB,Calgary,51.05525,-114.17241
5114509,2017-06-21T07:42:03.250Z,CA,ON,Woodbridge,43.7923,-79.5524
5346949,2017-06-21T07:58:40.480Z,CA,AB,Calgary,51.1229,-114.189
4632695,2017-06-21T08:06:19.437Z,CA,AB,Beaumont,53.35874,-113.40559
5441883,2017-06-21T08:07:23.917Z,CA,QC,Sainte-Foy,46.7806,-71.2888
5503607,2017-06-21T08:13:27.803Z,CA,AB,Edmonton,53.44666,-113.3997
5225229,2017-06-21T08:49:54.677Z,CA,AB,Edmonton,53.5185,-113.6579
4649245,2017-06-21T09:07:27.410Z,CA,ON,Maple,43.8526,-79.5117
5571897,2017-06-21T09:19:20.157Z,CA,ON,Toronto,43.6563,-79.3858
4740375,2017-06-21T10:14:39.447Z,CA,AB,Calgary,51.0823,-113.9578
5089952,2017-06-21T10:40:19.187Z,CA,AB,Edmonton,53.4564,-113.521
4668560,2017-06-21T11:08:51.633Z,CA,QC,Sainte-Foy,46.75904,-71.29477
4764384,2017-06-21T11:16:17.337Z,CA,AB,Calgary,51.0876,-114.0214
5158831,2017-06-21T11:44:54.467Z,CA,ON,Pickering,43.8296,-79.1365
4540995,2017-06-21T12:01:17.417Z,CA,AB,Calgary,50.95738,-114.22057
4614377,2017-06-21T12:05:09.837Z,CA,ON,London,42.9334,-81.2258
5523887,2017-06-21T12:15:30.397Z,CA,AB,Calgary,51.0075,-114.004
5585563,2017-06-21T12:20:26.370Z,CA,SK,Saskatoon,52.14965,-106.71126
5085577,2017-06-21T12:39:52.007Z,CA,ON,Pembroke,45.81,-77.11662
5196412,2017-06-21T12:47:39.883Z,CA,QC,Gatineau,45.4896,-75.6331
4634017,2017-06-21T13:06:26.500Z,CA,ON,Mississauga,43.5869,-79.7559
5602557,2017-06-21T13:21:40.837Z,CA,AB,Edmonton,53.5105,-113.37
4956934,2017-06-21T13:31:34.633Z,CA,AB,Edmonton,53.4593,-113.4145
4986831,2017-06-21T13:33:22.453Z,CA,AB,Calgary,51.11315,-114.20288
5220390,2017-06-21T13:49:28.467Z,CA,ON,London,43.005,-81.1631
5272826,2017-06-21T13:53:27.907Z,CA,AB,Red Deer,52.3116,-113.842
5332645,2017-06-21T13:57:15.873Z,CA,AB,Calgary,50.95738,-114.22057
4675820,2017-06-21T14:09:22.460Z,CA,AB,Edmonton,53.5442,-113.495
5139820,2017-06-21T14:43:41.330Z,CA,AB,Calgary,51.08622,-114.0957
4909366,2017-06-21T15:28:19.507Z,CA,ON,Toronto,43.6666,-79.3823
5035440,2017-06-21T15:36:22.390Z,CA,AB,Edmonton,53.4593,-113.4145
5119413,2017-06-21T15:42:13.587Z,CA,QC,Châteauguay,45.3617,-73.7428
5199020,2017-06-21T15:47:56.940Z,CA,ON,Mississauga,43.5769,-79.6283
4550969,2017-06-21T16:01:30.900Z,CA,ON,Waterloo,43.4634,-80.5201
5429537,2017-06-21T16:06:05.857Z,CA,BC,Vancouver,49.293,-123.048
5519885,2017-06-21T16:15:15.660Z,CA,ON,Mississauga,43.5769,-79.6283
4752956,2017-06-21T16:15:26.543Z,CA,AB,Calgary,51.0419,-114.2
5137661,2017-06-21T16:43:30.863Z,CA,AB,Leduc,53.2617,-113.549
4597201,2017-06-21T17:03:50.840Z,CA,ON,Burlington,43.3889,-79.7682
5429777,2017-06-21T17:06:06.933Z,CA,QC,Saint-Laurent,45.5038,-73.6843
4887748,2017-06-21T17:26:17.703Z,CA,AB,Calgary,51.1264,-114.1419
5052456,2017-06-21T17:37:34.200Z,CA,ON,Mississauga,43.58965,-79.7585
5367416,2017-06-21T17:59:57.943Z,CA,ON,Toronto,43.6477,-79.4174
5446344,2017-06-21T18:07:57.760Z,CA,ON,Thornhill,43.8395,-79.3831
5554256,2017-06-21T18:17:56.763Z,CA,AB,Calgary,51.0242,-114.1004
4840847,2017-06-21T18:22:23.043Z,CA,ON,Trenton,44.1273,-77.5963
4869177,2017-06-21T19:24:47.830Z,CA,AB,Lacombe,52.4668,-113.7353
4992080,2017-06-21T19:33:39.110Z,CA,ON,Pickering,43.83595,-79.08793
5040518,2017-06-21T20:36:48.127Z,CA,AB,Okotoks,50.7151,-113.968
5160327,2017-06-21T20:45:05.703Z,CA,SK,Regina,50.4548,-104.595
4566152,2017-06-21T21:01:51.753Z,CA,AB,Okotoks,50.731,-113.97175
5559973,2017-06-21T21:18:21.877Z,CA,BC,Kamloops,50.6716,-120.329
4804107,2017-06-21T21:19:10.430Z,CA,AB,Okotoks,50.7258,-113.974
4840133,2017-06-21T21:22:17.073Z,CA,AB,Sherwood Park,53.52282,-113.33181
5246818,2017-06-21T21:51:28.937Z,CA,ON,Ajax,43.8558,-79.0179
4688867,2017-06-21T22:10:30.767Z,CA,AB,Calgary,51.1188,-113.9471
5243976,2017-06-21T22:51:17.240Z,CA,BC,Victoria,48.40733,-123.53137
5256779,2017-06-21T22:52:19.180Z,CA,QC,Montréal,45.4934,-73.5837
